"station_name","site_type","status","confidence","address","state","longitude","latitude","network","ccs1_ports","ccs1_power_per_port","nacs_ports","nacs_power_per_port","charger_count","open_24_7","last_updated","NEVI_creditable","PlugShare_link","AFC","data_source"
"Pilot Travel Center #1490","Truck Stop","Coming Soon","High","7530 TN-222, Mason, TN 38049","TN",-89.4114845281521,35.3886099548922,"GM Energy","","","","","","","2026-03-31","Y","https://www.plugshare.com/location/1717923","Y","Coming_Soon"
"Pilot Travel Center #411","Truck Stop","Coming Soon","Medium","921 Murfreesboro Rd, Lebanon, TN 37090","TN",-86.2996008483439,36.1791200321099,"GM Energy","","","","","","","2026-03-31","Y","https://www.plugshare.com/location/1738412","Y","Coming_Soon"
"Flying J Travel Center #662","Truck Stop","Coming Soon","High","18750 Herndon Oak Grove Rd, Oak Grove, KY 42262","KY",-87.4543616374947,36.6970598600227,"GM Energy","","","","","","","2026-01-15","Y","https://www.plugshare.com/location/722086","Y","Coming_Soon"
"Pilot Travel Center #439","Truck Stop","Coming Soon","Medium","12900 Fort Campbell Boulevard","KY",-87.4517574948144,36.6922390362249,"","","","","","","","2026-04-27","Y","https://www.plugshare.com/location/1795524","Y","Coming_Soon"
"Flying J Travel Center","Truck Stop","Open","","3400 Service Loop Rd, West Memphis, AR 72301","AR",-90.1444739782888,35.154549842265,"GM Energy","4","350","0","0","2","Y","2026-01-15","Y","https://www.plugshare.com/location/565820","Y","Open_Creditable"
"Commons at Wolf Creek","Shopping Center","Open","","2755 North Germantown Parkway, Memphis, TN 38133","TN",-89.7938987187097,35.2018548243843,"Electrify America","4","350","0","0","4","Y","2026-01-15","Y","https://www.plugshare.com/location/559773","Y","Open_Creditable"
"Walmart 335 - Jackson, TN","Shopping Center","Open","","2196 Emporium Dr, Jackson, TN 38305","TN",-88.8530343753744,35.6688386596678,"Electrify America","6","350","0","0","4","Y","2026-01-15","Y","https://www.plugshare.com/location/185737","Y","Open_Creditable"
"Pilot Travel Center","Truck Stop","Open","","30 Sand Pebble Drive, Jackson, TN 38305","TN",-88.7773491732522,35.6832665858114,"GM Energy","4","350","0","0","2","Y","2026-01-15","Y","https://www.plugshare.com/location/585173","Y","Open_Creditable"
"Dickson I-40 | MB High-Power Charging","Restaurant","Open","","2431 TN-46, Dickson, TN 37055","TN",-87.3337329178165,36.0171130287293,"Mercedes-Benz Charging Network","5","400","5","400","5","Y","2026-03-31","Y","https://www.plugshare.com/location/1417554","Y","Open_Creditable"
"Pilot Travel Center","Truck Stop","Open","","2320 Highway 46 South Dickson, TN 37055","TN",-87.3405212777352,36.0225247421689,"GM Energy","4","350","0","0","2","Y","2026-03-31","Y","https://www.plugshare.com/location/1301211","Y","Open_Creditable"
"Willowbrook Commons - Guacamayas","Shopping Center","Open","","61 East Thompson Lane, Nashville, Tennessee, 37211","TN",-86.7272065076358,36.1097972450458,"Electrify America","8","350","0","0","8","Y","2026-01-15","Y","https://www.plugshare.com/location/158471","Y","Open_Creditable"
"Pilot Travel Center Gordonsville","Truck Stop","Open","","504 Gordonsville Hwy, Gordonsville, TN 38563","TN",-85.9484924980823,36.1771264125409,"GM Energy","4","350","0","0","2","Y","2026-01-15","Y","https://www.plugshare.com/location/642781","Y","Open_Creditable"
"The Shoppes at Eagle Pointe","Shopping Center","Open","","1265 Interstate Dr Suite 201b, Cookeville, TN 38501","TN",-85.5102050185881,36.1399170979536,"Rivian Adventure Network","6","350","0","0","6","Y","2026-01-15","Y","https://www.plugshare.com/location/573939","Y","Open_Creditable"
"Sam's Club","Shopping Center","Open","","1177 Sams Street, Cookeville, Tennessee, 38506","TN",-85.507661068508,36.1334594770016,"Electrify America","7","350","0","0","4","Y","2026-01-15","Y","https://www.plugshare.com/location/169566","Y","Open_Creditable"
"Buc-ee's Crossville | MB High-Power Charging","Truck Stop","Open","","2045 Genesis Rd, Crossville, TN 38555","TN",-85.0163186984839,35.9795173563922,"Mercedes-Benz Charging Network","10","400","0","0","6","Y","2026-01-15","Y","https://www.plugshare.com/location/574442","Y","Open_Creditable"
"Buc-ee's Crossville | Tesla Supercharger","Truck Stop","Open","","2045 Genesis Rd, Crossville, TN 38555","TN",-85.0163186984839,35.9795173563922,"Tesla","16","250","16","250","16","Y","2026-03-31","Y","https://www.plugshare.com/location/493878","Y","Open_Creditable"
"Dunkin'","Restaurant","Open","","1841 Griffith Dr, Harriman, TN 37748","TN",-84.5478331791854,35.8898919380515,"ChargePoint","5","400","2","400","4","Y","2026-01-15","Y","https://www.plugshare.com/location/720543","Y","Open_Creditable"
"Flying J Travel Center","Truck Stop","Open","","800 Watt Rd, Knoxville, TN 37932","TN",-84.2358661113669,35.880654047075,"GM Energy","4","350","0","0","2","Y","2026-01-15","Y","https://www.plugshare.com/location/547994","Y","Open_Creditable"
"Walmart 2065 - Knoxville","Shopping Center","Open","","8445 Walbrook Dr, Knoxville, TN 37923","TN",-84.0612382428528,35.9262629637278,"Electrify America","4","350","0","0","4","Y","2026-01-15","Y","https://www.plugshare.com/location/169557","Y","Open_Creditable"
"Harley Davidson","Shopping Center","Open","","3603 Outdoor Sportsman Pl, Kodak, TN 37764","TN",-83.6102535992132,35.9860468786766,"Electrify America","4","350","0","0","4","Y","2026-01-15","Y","https://www.plugshare.com/location/311580","Y","Open_Creditable"
"Buc-ee's Sevierville | MB High-Power Charging","Truck Stop","Open","","170 Buc-ee's Blvd, Kodak, TN 37764","TN",-83.60588381762,35.9811783633966,"Mercedes-Benz Charging Network","10","400","0","0","6","Y","2026-01-15","Y","https://www.plugshare.com/location/715512","Y","Open_Creditable"
"Buc-ee's Sevierville | Tesla Supercharger","","Open","","170 Buc-ee's Blvd, Kodak, TN 37764","TN",-83.60588381762,35.9811783633966,"Tesla","24","250","24","250","24","Y","2026-03-31","Y","https://www.plugshare.com/location/535896","Y","Open_Creditable"
"Pilot Travel Center","Truck Stop","Open","","3708 Crabtree Rd, Waynesville, NC 28785","NC",-82.9557932884234,35.5717281932588,"GM Energy","5","350","0","0","3","Y","2026-01-15","Y","https://www.plugshare.com/location/565842","Y","Open_Creditable"
"Pilot Travel Center","Truck Stop","Open","","3624 Roy Messer Hwy, White Pine, TN 37890","TN",-83.3347203019743,36.1087801950721,"GM Energy","4","350","0","0","2","Y","2026-01-15","Y","https://www.plugshare.com/location/543332","Y","Open_Creditable"
"Weigel's Travel Center Morristown","Truck Stop","Open","","370 Progress Pkwy, Morristown, TN 37813","TN",-83.2799891113739,36.1430037810395,"ChargePoint","5","400","0","0","3","Y","2026-01-15","Y","https://www.plugshare.com/location/685999","Y","Open_Creditable"
"Davy Crockett TA Travel Center","Truck Stop","Open","","195 Van Hill Rd, Greeneville, TN 37745","TN",-82.8346678334894,36.3256022329683,"ChargePoint","5","400","0","0","3","Y","2026-01-15","Y","https://www.plugshare.com/location/686037","Y","Open_Creditable"
"Sam's Club 6518","Shopping Center","Open","","21483 Market Center, Bristol, VA 24202","VA",-82.1273078936486,36.6356353338171,"Electrify America","7","350","0","0","4","Y","2026-01-15","Y","https://www.plugshare.com/location/186831","Y","Open_Creditable"
"Pilot Travel Center","Truck Stop","Open","","481 KY-92, Williamsburg, KY 40769","KY",-84.1680885760926,36.7222520696162,"GM Energy","4","350","0","0","4","Y","2026-01-15","Y","https://www.plugshare.com/location/560111","Y","Open_Creditable"
"Walmart 1048 Williamsburg","Shopping Center","Open","","589 KY-92, Williamsburg, Kentucky, 40769","KY",-84.1699892096151,36.7205845413297,"Electrify America","7","350","0","0","4","Y","2026-01-15","Y","https://www.plugshare.com/location/163268","Y","Open_Creditable"
"Weigel's","Truck Stop","Open","","2805 Decatur Pike, Athens, TN 37303","TN",-84.6519602473448,35.466978070937,"ChargePoint","4","400","0","0","3","Y","2026-01-15","Y","https://www.plugshare.com/location/685837","Y","Open_Creditable"
"Cleveland Utilities","Workplace","Open","","2450 Guthrie Ave NW, Cleveland, TN 37311","TN",-84.8838499836754,35.1889443121821,"Autel","4","350","0","0","3","Y","2026-01-15","Y","https://www.plugshare.com/location/1170863","Y","Open_Creditable"
"Walmart 3835","Shopping Center","Open","","5588 Little Debbie Parkway, Ooltewah, Tennessee, 37363","TN",-85.0636095424847,35.0825056401647,"Electrify America","15","350","0","0","8","Y","2026-01-15","Y","https://www.plugshare.com/location/161631","Y","Open_Creditable"
"VW Chattanooga Plant","Workplace","Open","","8001 Volkswagen Dr, Chattanooga, Tennessee 37416","TN",-85.1290579447698,35.0765536327662,"Electrify America","6","350","0","0","6","Y","2026-01-15","Y","https://www.plugshare.com/location/489467","Y","Open_Creditable"
"Hamilton Place | MB High-Power Charging","Shopping Center","Open","","2094 Hamilton Pl Blvd, Chattanooga, TN 37421","TN",-85.1597999109353,35.0321449717574,"Mercedes-Benz Charging Network","10","400","0","0","5","Y","2026-01-15","Y","https://www.plugshare.com/location/785405","Y","Open_Creditable"
"Flying J Travel Center","Truck Stop","Open","","4380 Nashville Rd, Franklin, KY 42134","KY",-86.5542392020467,36.6628746661408,"GM Energy","4","350","0","0","2","Y","2026-01-15","Y","https://www.plugshare.com/location/622092","Y","Open_Creditable"
"The Shops of Brentwood Hills - Target","Shopping Center","Open","","780 Old Hickory Boulevard, Brentwood, TN 37027","TN",-86.7778309494708,36.0423389429369,"Tesla","24","325","24","325","24","Y","2026-03-31","Y","https://www.plugshare.com/location/266466","Y","Open_Creditable"
"Walmart 272","Shopping Center","Open","","3600 Mallory Ln, Franklin, TN 37067","TN",-86.8194684562784,35.9405696224231,"Electrify America","4","350","0","0","2","Y","2026-01-15","Y","https://www.plugshare.com/location/190895","Y","Open_Creditable"
"Walmart 661","Shopping Center","Open","","1011 US Hwy 72 E, Athens, Alabama, 35611","AL",-86.9581601688018,34.7873868443858,"Electrify America","7","350","0","0","4","Y","2026-01-15","Y","https://www.plugshare.com/location/266273","Y","Open_Creditable"
"Buc-ee's Athens, AL | MB High-Power Charging","Truck Stop","Open","","2328 Lindsay Ln S, Athens, AL 35613","AL",-86.9332743055409,34.7288614115973,"Mercedes-Benz Charging Network","10","400","0","0","5","Y","2026-03-31","Y","https://www.plugshare.com/location/574437","Y","Open_Creditable"
"Walmart 673","Shopping Center","Open","","3050 Wilma Rudolph Blvd, Clarksville, TN 37040","TN",-87.2898324841757,36.5952299233126,"Electrify America","7","350","0","0","4","Y","2026-01-15","Y","https://www.plugshare.com/location/163270","Y","Open_Creditable"
"Farrar Place","Shopping Center","Open","","920 Hillsboro Blvd, Manchester, Tennessee, 37355","TN",-86.0797891286399,35.4742171823599,"Electrify America","4","350","0","0","4","Y","2026-01-15","Y","https://www.plugshare.com/location/152884","Y","Open_Creditable"
"Pilot Travel Center","Truck Stop","Open","","640 Dixie Lee Ave, Monteagle, TN 37356","TN",-85.8259633264379,35.2327908108705,"GM Energy","4","350","0","0","2","Y","2026-01-15","Y","https://www.plugshare.com/location/642782","Y","Open_Creditable"
"Pilot Travel Center","Truck Stop","Coming Soon","High","7210 Strawberry Plains Pike Knoxville, TN 37914","TN",-83.776972394243,35.9996648290766,"GM Energy","","","","","","","2026-01-15","Y","https://www.plugshare.com/location/1301244","Y","Coming_Soon"
"Thorntons LLC, subsidiary of BP","","Awarded","","7102 Charlotte Pike, Nashville, TN 37209","TN",-86.9077214,36.1282308,"","","","","","4","","","Y","","Y","NEVI Awarded Sites"
"Thorntons LLC, subsidiary of BP","","Awarded","","243 Highway 109 North Lebanon, TN 37090","TN",-86.4080531,36.1882782,"","","","","","4","","","Y","","Y","NEVI Awarded Sites"
"NA","","Awarded","","2512 Sullivan Gardens Pkwy, Kingsport, TN 37660","TN",-82.5671882,36.496871,"","","","","","NA","","","Y","","Y","NEVI Awarded Sites"
"Nicky Remik (Mr. Zip gas station w/Shell fuel)","","Awarded","","2000 Temple Hill Rd, Erwin, TN 37650","TN",-82.4453164,36.1202771,"","","","","","4","","","Y","","Y","NEVI Awarded Sites"
"Waffle House, Inc.","","Awarded","","9780 US Highway 64, Lakeland, TN 38002","TN",-89.7370238,35.2058257,"","","","","","4","","","Y","","Y","NEVI Awarded Sites"
"Love's Travel Stops & Country Stores, Inc","","Awarded","","260 TVA Road Jasper, TN 37347","TN",-85.584017,35.0367175,"","","","","","4","","","Y","","Y","NEVI Awarded Sites"
"Love's Travel Stops & Country Stores, Inc","","Awarded","","13820 US-641 N Holladay, TN 38341","TN",-88.0843576,35.8393749,"","","","","","4","","","Y","","Y","NEVI Awarded Sites"
"Love's Travel Stops & Country Stores, Inc","","Awarded","","1129 Smokey Mountain Lane, Newport, TN 37821","TN",-83.2477723,35.9705484,"","","","","","4","","","Y","","Y","NEVI Awarded Sites"
"Love's Travel Stops & Country Stores, Inc","","Awarded","","1001 Highway 76 White House, TN 37188","TN",-86.6873105,36.467778,"","","","","","4","","","Y","","Y","NEVI Awarded Sites"
"Pilot Travel Centers LLC","","Awarded","","15559 Highway 13 South Hurricane Mills, TN 37078","TN",-87.8010389,35.8821793,"","","","","","4","","","Y","","Y","NEVI Awarded Sites"
"Pilot Travel Centers LLC","","Awarded","","2449 Genesis Road Crossville, TN 38571","TN",-85.0118138,35.9857418,"","","","","","4","","","Y","","Y","NEVI Awarded Sites"
"Pilot Travel Centers LLC","","Awarded","","507 Highway 309 Niota, TN 37826","TN",-84.565641,35.5452624,"","","","","","4","","","Y","","Y","NEVI Awarded Sites"
"PowerUp America LLC","","Awarded","","36°18'59.9""N 86°51'58.1""W","TN",-86.8661388888889,36.3166388888889,"","","","","","NA","","","Y","","Y","NEVI Awarded Sites"
"PowerUp America LLC","","Awarded","","35°54'12.4""N 84°52'37.7""W","TN",-84.8771388888889,35.9034444444445,"","","","","","4","","","Y","","Y","NEVI Awarded Sites"
"PowerUp America LLC","","Awarded","","35°53'25.8""N 84°33'03.8""W","TN",-84.5510555555555,35.8905,"","","","","","NA","","","Y","","Y","NEVI Awarded Sites"
"PowerUp America LLC","","Awarded","","35°13'23.4""N 88°50'00.9""W","TN",-88.8335833333333,35.2231666666667,"","","","","","4","","","Y","","Y","NEVI Awarded Sites"
"PowerUp America LLC","","Awarded","","35°19'43.1""N 87°46'45.8""W","TN",-87.7793888888889,35.3286388888889,"","","","","","4","","","Y","","Y","NEVI Awarded Sites"
"PowerUp America LLC","","Awarded","","35°15'32.3""N 87°22'37.4""W","TN",-87.3770555555555,35.2589722222222,"","","","","","4","","","Y","","Y","NEVI Awarded Sites"
"PowerUp America LLC","","Awarded","","36°24'15.6""N 82°37'15.2""W","TN",-82.6208888888889,36.4043333333333,"","","","","","4","","","Y","","Y","NEVI Awarded Sites"
"Fairview Inn & Suites","","Awarded","","1524 TN-96, Fairview, TN 37062","TN",-87.1804579,36.0289678,"","","","","","4","","","Y","","Y","NEVI Awarded Sites"
"Unique Developments LLC","","Awarded","","1210 Sparta Pike, Lebanon, TN 37087","TN",-86.2674396,36.1852583,"","","","","","4","","","Y","","Y","NEVI Awarded Sites"
"West Coast INC (NY Truck Stop  w/Shell fuel)","","Awarded","","1410 W Market St Bolivar, TN 38008","TN",-89.0109911,35.2653835,"","","","","","4","","","Y","","Y","NEVI Awarded Sites"
"Joyb LLC (Valero Fuel Station)","","Awarded","","540 E Main St Adamsville, TN 38310","TN",-88.3769973,35.2341427,"","","","","","4","","","Y","","Y","NEVI Awarded Sites"
"Om Rudra LLC (Marathon)","","Awarded","","4030 Pulaski Hwy Lawrenceburg, TN 38464","TN",-87.2636276,35.226959,"","","","","","4","","","Y","","Y","NEVI Awarded Sites"
"Santoshi Mataji INC (Shell Fuel)","","Awarded","","2470 US-64 Pulaski, TN 38478","TN",-86.8686684,35.1932529,"","","","","","4","","","Y","","Y","NEVI Awarded Sites"
"SNJR 29 LLC (Shell Fuel)","","Awarded","","706 Lewisburg Hwy Fayetteville, TN 37334","TN",-86.5758549,35.1601287,"","","","","","4","","","Y","","Y","NEVI Awarded Sites"
"Premprisha LLC (Trolley Rock Truck Stop)","","Awarded","","8791 David Crockett Hwy Belvidere, TN 37306","TN",-86.1959935,35.1208354,"","","","","","4","","","Y","","Y","NEVI Awarded Sites"
"Shell","","Awarded","","2228 N Charles G Seivers Blvd Clinton, TN 37716","TN",-84.0863509,36.1629814,"","","","","","4","","","Y","","Y","NEVI Awarded Sites"
"University of Tennessee - 11th Street Parking Garage","","Existing","","1101 Cumberland Ave","TN",-83.924911,35.95953,"Non-Networked","","","","","1","","2024-11-06","N","","N","Other_DCFC"
"The Pinnacle - Tesla Supercharger","","Existing","","416 Pinnacle Parkway","TN",-82.261227,36.59171,"Tesla","","","","","8","","2024-07-01","N","","N","Other_DCFC"
"Chattanooga Airport (CHA) - Tesla Supercharger","","Existing","","1001 Airport Road","TN",-85.19593,35.038644,"Tesla","","","","","6","","2024-07-01","N","","N","Other_DCFC"
"Jackson Plaza - Tesla Supercharger","","Existing","","377 West Jackson Street","TN",-85.515186,36.155817,"Tesla","","","","","8","","2024-07-01","N","","N","Other_DCFC"
"Holiday Inn Express & Suites - Tesla Supercharger","","Existing","","100 Barzani Blvd","TN",-87.333018,36.018436,"Tesla","","","","","8","","2024-07-01","N","","N","Other_DCFC"
"Casey Jones Village - Tesla Supercharger","","Existing","","56 Casey Jones Lane","TN",-88.855619,35.66042,"Tesla","","","","","24","","2024-07-01","N","","N","Other_DCFC"
"Pavilion of Turkey Creek - Tesla Supercharger","","Existing","","10936 Parkside Dr","TN",-84.149634,35.901319,"Tesla","","","","","8","","2024-07-01","N","","N","Other_DCFC"
"Dunkin Donuts - Tesla Supercharger","","Existing","","2224 Hillsboro Blvd.","TN",-86.057393,35.458629,"Tesla","","","","","10","","2024-07-01","N","","N","Other_DCFC"
"Willowbrook Commons - Tesla Supercharger","","Existing","","61 East Thompson Lane","TN",-86.723904,36.110515,"Tesla","","","","","24","","2024-07-01","N","","N","Other_DCFC"
"TTU TTU DC FAST 1","","Existing","","320 University Dr","TN",-85.51138,36.176765,"ChargePoint Network","","","","","1","","2026-04-01","N","","N","Other_DCFC"
"MOONSHINE H-D DCFAST HOG","","Existing","","7128 S Springs Dr","TN",-86.81553,35.953728,"ChargePoint Network","","","","","1","","2026-04-01","N","","N","Other_DCFC"
"Target - Tesla Supercharger","","Existing","","6814 Charlotte Pike","TN",-86.891923,36.134009,"Tesla","","","","","24","","2024-07-01","N","","N","Other_DCFC"
"Brookview Town Centre - Tesla Supercharger","","Existing","","250  Brookview Centre Way","TN",-84.00416,35.93583,"Tesla","","","","","8","","2024-07-01","N","","N","Other_DCFC"
"Kimball Crossing - Tesla Supercharger","","Existing","","300  Kimball Crossing Drive","TN",-85.68505,35.03978,"Tesla","","","","","12","","2024-07-01","N","","N","Other_DCFC"
"Stonehaus Winery - Tesla Supercharger","","Existing","","2444  Genesis Road","TN",-85.01058,35.98435,"Tesla","","","","","8","","2024-07-01","N","","N","Other_DCFC"
"DK TIRES STATION 2","","Existing","","530 Myatt Dr","TN",-86.696002,36.283447,"ChargePoint Network","","","","","1","","2026-04-01","N","","N","Other_DCFC"
"The Market at Wolfcreek - Tesla Supercharger","","Existing","","2765  North Germantown Parkway","TN",-89.79448,35.20226,"Tesla","","","","","12","","2024-07-01","N","","N","Other_DCFC"
"Hamilton Place Mall - Tesla Supercharger","","Existing","","2100 Hamilton Place Boulevard","TN",-85.159957,35.036512,"Tesla","","","","","12","","2024-07-01","N","","N","Other_DCFC"
"Nissan Stadium","","Existing","","1 Titans Way","TN",-86.769632,36.164227,"eVgo Network","","","","","2","","2026-03-31","N","","N","Other_DCFC"
"DK TIRES STATION 3","","Existing","","530 Myatt Dr","TN",-86.69596,36.28376,"ChargePoint Network","","","","","1","","2026-04-01","N","","N","Other_DCFC"
"Save A Lot Nashville","","Existing","","2400 Clarksville Pike","TN",-86.816809,36.185885,"eVgo Network","","","","","4","","2026-04-01","N","","N","Other_DCFC"
"HYUNDAI BRISTOL STATION 3","","Existing","","2622 W State St","TN",-82.213344,36.594181,"ChargePoint Network","","","","","1","","2026-04-01","N","","N","Other_DCFC"
"FRIENDSHIPJCHYU FRONT SHOWROOM","","Existing","","3408 N Roan St","TN",-82.391903,36.364317,"ChargePoint Network","","","","","1","","2026-04-01","N","","N","Other_DCFC"
"FRIENDSHIPJCHYU SOUTH PARKING","","Existing","","3408 N Roan St","TN",-82.391903,36.364325,"ChargePoint Network","","","","","1","","2026-04-01","N","","N","Other_DCFC"
"Buc-ee's - Tesla Supercharger","","Existing","","2045 Genesis Rd","TN",-85.015423,35.979514,"Tesla","","","","","16","","2024-07-01","N","","N","Other_DCFC"
"Mount Juliet, TN - Tesla Supercharger","","Existing","","48 Old Pleasant Grove Road","TN",-86.513702,36.173778,"Tesla","","","","","6","","2024-07-01","N","","N","Other_DCFC"
"Monteagle, TN - Tesla Supercharger","","Existing","","754 W Main St","TN",-85.850886,35.237604,"Tesla","","","","","12","","2024-07-01","N","","N","Other_DCFC"
"LAWRENCEBURG STATION 1 (L)","","Existing","","2347 Hwy 43 N","TN",-87.340416,35.193805,"ChargePoint Network","","","","","1","","2026-04-01","N","","N","Other_DCFC"
"LAWRENCEBURG STATION 2 (R)","","Existing","","2347 Hwy 43 N","TN",-87.340462,35.193807,"ChargePoint Network","","","","","1","","2026-04-01","N","","N","Other_DCFC"
"I24 EXIT11 STATION 4 (RR)","","Existing","","701 Sango Road","TN",-87.223369,36.523896,"ChargePoint Network","","","","","1","","2026-04-01","N","","N","Other_DCFC"
"I24 EXIT11 STATION 3 (RM)","","Existing","","701 Sango Road","TN",-87.223343,36.52389,"ChargePoint Network","","","","","1","","2026-04-01","N","","N","Other_DCFC"
"I24 EXIT11 STATION 2 (LM)","","Existing","","701 Sango Road","TN",-87.223311,36.523888,"ChargePoint Network","","","","","1","","2026-04-01","N","","N","Other_DCFC"
"I24 EXIT11 STATION 1 (LL)","","Existing","","701 Sango Road","TN",-87.223281,36.523885,"ChargePoint Network","","","","","1","","2026-04-01","N","","N","Other_DCFC"
"BTES STATION 1 (LL)","","Existing","","392 Pinnacle Pkwy","TN",-82.261508,36.591762,"ChargePoint Network","","","","","1","","2026-04-01","N","","N","Other_DCFC"
"BTES STATION 3 (RM)","","Existing","","392 Pinnacle Pkwy","TN",-82.261597,36.591862,"ChargePoint Network","","","","","1","","2026-04-01","N","","N","Other_DCFC"
"BTES STATION 4 (RR)","","Existing","","392 Pinnacle Pkwy","TN",-82.261608,36.591891,"ChargePoint Network","","","","","1","","2026-04-01","N","","N","Other_DCFC"
"2 North Shore - Tesla Supercharger","","Existing","","301 Manufacturers Rd","TN",-85.3149492,35.0633775,"Tesla","","","","","12","","2024-07-01","N","","N","Other_DCFC"
"MERCEDES 1 RAPID#1","","Existing","","6037 International Dr","TN",-85.191221,35.059701,"ChargePoint Network","","","","","1","","2026-04-01","N","","N","Other_DCFC"
"Capitol View Garage - Tesla Supercharger","","Existing","","500 11th Ave N","TN",-86.790931,36.1648,"Tesla","","","","","12","","2024-07-01","N","","N","Other_DCFC"
"BEA STATION 4 (RR)","","Existing","","121 Sunny Hill Cove","TN",-89.246436,35.540262,"ChargePoint Network","","","","","1","","2026-04-01","N","","N","Other_DCFC"
"BEA STATION 3 (RM)","","Existing","","121 Sunny Hill Cove","TN",-89.246447,35.540227,"ChargePoint Network","","","","","1","","2026-04-01","N","","N","Other_DCFC"
"BEA STATION 2 (LM)","","Existing","","121 Sunny Hill Cove","TN",-89.246457,35.540195,"ChargePoint Network","","","","","1","","2026-04-01","N","","N","Other_DCFC"
"BEA STATION 1 (LL)","","Existing","","121 Sunny Hill Cove","TN",-89.246463,35.540172,"ChargePoint Network","","","","","1","","2026-04-01","N","","N","Other_DCFC"
"Almaville Station Exxon - Tesla Supercharger","","Existing","","2205 Almaville Rd","TN",-86.538166,35.924423,"Tesla","","","","","12","","2024-07-01","N","","N","Other_DCFC"
"WCHYUNDAI FAST 2","","Existing","","1310 W Main St","TN",-86.322905,36.212835,"ChargePoint Network","","","","","1","","2026-04-01","N","","N","Other_DCFC"
"WCHYUNDAI FAST 3","","Existing","","1310 W Main St","TN",-86.322888,36.212829,"ChargePoint Network","","","","","1","","2026-04-01","N","","N","Other_DCFC"
"WCHYUNDAI FAST 4","","Existing","","1310 W Main St","TN",-86.322862,36.212821,"ChargePoint Network","","","","","1","","2026-04-01","N","","N","Other_DCFC"
"Jenkins & Wynne Ford, Lincoln, Honda","","Existing","","2655 Trenton Road","TN",-87.3128043801973,36.5812229156708,"Blink Network","","","","","4","","2026-04-01","N","","N","Other_DCFC"
"NES POWER SERRA 1","","Existing","","2340 Gallatin Pike N","TN",-86.683103,36.308526,"ChargePoint Network","","","","","1","","2026-04-01","N","","N","Other_DCFC"
"NES POWER SERRA 2","","Existing","","2340 Gallatin Pike N","TN",-86.683092,36.308502,"ChargePoint Network","","","","","1","","2026-04-01","N","","N","Other_DCFC"
"Champion Chevrolet Cadillac","","Existing","","3606 Bristol Hwy","TN",-82.370192,36.374631,"EV Connect","","","","","3","","2026-04-01","N","","N","Other_DCFC"
"LENOIR CITY CDJ POWER LINK 1","","Existing","","1206 East Broadway Street","TN",-84.254794,35.798299,"ChargePoint Network","","","","","1","","2026-04-01","N","","N","Other_DCFC"
"Hampton Inn & Suites - Tesla Supercharger","","Existing","","3451 Dickerson Pike","TN",-86.755338,36.244436,"Tesla","","","","","16","","2024-07-01","N","","N","Other_DCFC"
"Emory Station - Tesla Supercharger","","Existing","","7531 Barnett Wy","TN",-83.993537,36.052823,"Tesla","","","","","24","","2024-07-01","N","","N","Other_DCFC"
"Tennessee Travel Stop - Tesla Supercharger","","Existing","","3686 Pulaski Hwy","TN",-86.879857,35.310537,"Tesla","","","","","24","","2024-07-01","N","","N","Other_DCFC"
"River City Company Riverfront Parkway Lot (Chattanooga, TN)","","Existing","","190 Riverfront Pkwy","TN",-85.31517,35.05548,"Electrify America","","","","","8","","2026-04-01","N","","N","Other_DCFC"
"Finley Stadium (Chattanooga, TN)","","Existing","","1835 Reggie White Blvd","TN",-85.31822,35.03686,"Electrify America","","","","","6","","2026-04-01","N","","N","Other_DCFC"
"FPU STATION 1 (L)","","Existing","","110 College St W","TN",-86.571405,35.152029,"ChargePoint Network","","","","","1","","2026-04-01","N","","N","Other_DCFC"
"FPU STATION 2 (R)","","Existing","","110 College Street West","TN",-86.571405,35.152052,"ChargePoint Network","","","","","1","","2026-04-01","N","","N","Other_DCFC"
"BRIGHTRIDGE EV STATION 2 (R)","","Existing","","110 Cherry Street","TN",-82.349923,36.316109,"ChargePoint Network","","","","","1","","2026-04-01","N","","N","Other_DCFC"
"BRIGHTRIDGE EV STATION 1 (L)","","Existing","","110 Cherry Street","TN",-82.349939,36.316123,"ChargePoint Network","","","","","1","","2026-04-01","N","","N","Other_DCFC"
"Nick Mayer Chevrolet Buick GMC of Dickson","","Existing","","2211 Tennessee 46 S.","TN",-87.340309647077,36.0253758219223,"Blink Network","","","","","2","","2026-04-01","N","","N","Other_DCFC"
"Sweetwater Utilities - Jacky Jones Ford","","Existing","","714 New Highway 68","TN",-84.4833,35.59277,"ZEFNET","","","","","6","","2026-04-01","N","","N","Other_DCFC"
"One Hundred Oaks - Tesla Supercharger","","Existing","","719 Thompson Ln","TN",-86.763241,36.105754,"Tesla","","","","","24","","2024-10-11","N","","N","Other_DCFC"
"SVEC KIMBALL 1 (L)","","Existing","","570 Main St","TN",-85.678883,35.043869,"ChargePoint Network","","","","","1","","2026-04-01","N","","N","Other_DCFC"
"SVEC KIMBALL 2 (R)","","Existing","","570 Main St","TN",-85.678829,35.043885,"ChargePoint Network","","","","","1","","2026-04-01","N","","N","Other_DCFC"
"Cleveland Ford","","Existing","","2496 S Lee Hwy","TN",-84.92618,35.145553,"FORD_CHARGE","","","","","6","","2026-04-01","N","","N","Other_DCFC"
"Johnson City Ford","","Existing","","3519 Bristol Hwy","TN",-82.373149,36.375617,"FORD_CHARGE","","","","","4","","2026-04-01","N","","N","Other_DCFC"
"Downtown Knoxville","","Existing","","378 South Central Street","TN",-83.91642,35.9665,"ZEFNET","","","","","8","","2026-04-01","N","","N","Other_DCFC"
"134 Sharon Dr","","Existing","","134 Sharon Dr","TN",-83.444932,36.036011,"EV Connect","","","","","2","","2026-04-01","N","","N","Other_DCFC"
"Electric Era Charging Station","","Existing","","555 New Salem Highway","TN",-86.4072478,35.8382751,"ELECTRIC_ERA","","","","","8","","2026-04-01","N","","N","Other_DCFC"
"Target","","Existing","","1851 Old Fort Pkwy","TN",-86.425966,35.844941,"Tesla","","","","","12","","2024-12-10","N","","N","Other_DCFC"
"714 New Hwy 68","","Existing","","714 New Hwy 68","TN",-84.482651,35.592541,"EV Connect","","","","","6","","2026-04-01","N","","N","Other_DCFC"
"Thorntons, 2815 Lebanon Pike, Nashville, TN","","Existing","","2815 Lebanon Pike","TN",-86.662689,36.166858,"BP_PULSE","","","","","4","","2026-04-01","N","","N","Other_DCFC"
"Thorntons, 4145 Lebanon Pike, Hermitage, TN","","Existing","","4145 LEBANON PIKE","TN",-86.617813,36.200509,"BP_PULSE","","","","","4","","2026-04-01","N","","N","Other_DCFC"
"GUEST CHARGER CPE250 DCFC","","Existing","","343 Harding Pl","TN",-86.698045,36.085726,"ChargePoint Network","","","","","1","","2026-04-01","N","","N","Other_DCFC"
"GUEST CHARGER CPE250 DC","","Existing","","5300 Mt. View Road","TN",-86.649298,36.049101,"ChargePoint Network","","","","","1","","2026-04-01","N","","N","Other_DCFC"
"Long Chevrolet, Buick, GMC","","Existing","","1900 Congress Pkwy S","TN",-84.631112,35.446469,"EV Connect","","","","","1","","2026-04-01","N","","N","Other_DCFC"
"EPB Camp Jordan","","Existing","","655 Camp Jordan Parkway","TN",-85.20054,34.99089,"ZEFNET","","","","","4","","2026-04-01","N","","N","Other_DCFC"
"Fast Stop - Tesla Supercharger","","Existing","","60 Federal Ln","TN",-88.390478,35.788428,"Tesla","","","","","12","","2025-05-12","N","","N","Other_DCFC"
"Wyatt Johnson Ford","","Existing","","646 Thompson Ln","TN",-86.75629,36.11201,"FORD_CHARGE","","","","","4","","2026-04-01","N","","N","Other_DCFC"
"LROVERKNOXVILLE CUSTOMER LEVEL3","","Existing","","10556 Parkside Dr","TN",-84.135026,35.90523,"ChargePoint Network","","","","","1","","2026-04-01","N","","N","Other_DCFC"
"Cleveland Town Center - Tesla Supercharger","","Existing","","4570 Frontage Rd NW","TN",-84.867402,35.217526,"Tesla","","","","","16","","2025-06-06","N","","N","Other_DCFC"
"Middle Tennessee Electric Membership Corp - District Office","","Existing","","201 Maddox-Simpson Pkwy","TN",-86.298021,36.174597,"ZEFNET","","","","","4","","2025-07-03","N","","N","Other_DCFC"
"Memphis-Shelby County Code Enforcement","","Existing","","6465 Mullins Station Road","TN",-89.8480361119839,35.153080939745,"Blink Network","","","","","4","","2026-04-01","N","","N","Other_DCFC"
"BMW Chattanooga","","Existing","","6806 E Brainerd Rd","TN",-85.182559,35.015113,"CHAEVI","","","","","2","","2026-04-01","N","","N","Other_DCFC"
"Audi of Nashville Brentwood","","Existing","","1576 Mallory Ln","TN",-86.805642,35.976498,"CHAEVI","","","","","2","","2026-04-01","N","","N","Other_DCFC"
"Ford of Cookeville","","Existing","","1600 Interstate Dr","TN",-85.5264947,36.1387365,"FORD_CHARGE","","","","","4","","2026-04-01","N","","N","Other_DCFC"
"Cracker Barrel - Tesla Supercharger","","Existing","","1460 N Mack Smith Rd","TN",-85.208121,34.991071,"Tesla","","","","","12","","2025-08-12","N","","N","Other_DCFC"
"Exxon - Tesla Supercharger","","Existing","","1103 US-25W","TN",-83.24607,35.971113,"Tesla","","","","","12","","2025-08-12","N","","N","Other_DCFC"
"Steak 'n Shake - Tesla Supercharger","","Existing","","2819 Wilma Rudolph Blvd","TN",-87.290841,36.589756,"Tesla","","","","","8","","2025-09-12","N","","N","Other_DCFC"
"Food City - Tesla Supercharger","","Existing","","1000 Ladd Landing Blvd","TN",-84.494978,35.885242,"Tesla","","","","","16","","2025-09-12","N","","N","Other_DCFC"
"Target - Tesla Supercharger","","Existing","","8040 Ray Mears Blvd","TN",-84.048837,35.922097,"Tesla","","","","","16","","2025-10-13","N","","N","Other_DCFC"
"CH NISSAN NISSAN EV 1","","Existing","","465 Vann Dr","TN",-88.842942,35.667974,"ChargePoint Network","","","","","1","","2026-04-01","N","","N","Other_DCFC"
"CH NISSAN NISSAN EV 2","","Existing","","495 Vann Dr","TN",-88.843033,35.668067,"ChargePoint Network","","","","","1","","2026-04-01","N","","N","Other_DCFC"
"Ted Russell Ford - Kingston Pike - DCFC","","Existing","","8551 Kingston Pike","TN",-84.0659255815802,35.9214370090539,"Blink Network","","","","","2","","2026-04-01","N","","N","Other_DCFC"
"Ted Russell Ford - Kingston Pike - Private DCFC","","Existing","","8551 Kingston Pike","TN",-84.0667285252324,35.921734731496,"Blink Network","","","","","2","","2026-04-01","N","","N","Other_DCFC"
"MBORO HYU HYD L3 A FRONT","","Existing","","1625 South Church Street","TN",-86.394284,35.823671,"ChargePoint Network","","","","","1","","2026-04-01","N","","N","Other_DCFC"
"CHTOYOTA PL3 CL3","","Existing","","4601 Hutton Way","TN",-90.005479,35.022586,"ChargePoint Network","","","","","2","","2026-04-01","N","","N","Other_DCFC"
"CHTOYOTA PL1 CL1","","Existing","","4601 Hutton Way","TN",-90.005642,35.022466,"ChargePoint Network","","","","","2","","2026-04-01","N","","N","Other_DCFC"
"CHTOYOTA PL6 CL6","","Existing","","4601 Hutton Way","TN",-90.005134,35.022747,"ChargePoint Network","","","","","2","","2026-04-01","N","","N","Other_DCFC"
"CHTOYOTA PL5 CL5","","Existing","","4601 Hutton Way","TN",-90.005238,35.022711,"ChargePoint Network","","","","","2","","2026-04-01","N","","N","Other_DCFC"
"CHTOYOTA PL2 CL2","","Existing","","4601 Hutton Way","TN",-90.005562,35.0225,"ChargePoint Network","","","","","2","","2026-04-01","N","","N","Other_DCFC"
"CHTOYOTA PL4 CL4","","Existing","","4601 Hutton Way","TN",-90.00535,35.022593,"ChargePoint Network","","","","","2","","2026-04-01","N","","N","Other_DCFC"
"Andrews Cadillac Company (CTX)","","Existing","","1 Cadillac Drive","TN",-86.796031488533,36.0370002926296,"Blink Network","","","","","2","","2026-04-01","N","","N","Other_DCFC"
"Food City - Tesla Supercharger","","Existing","","2120 S Roan St","TN",-82.337197,36.302392,"Tesla","","","","","8","","2026-02-13","N","","N","Other_DCFC"
"Cracker Barrel - Tesla Supercharger","","Existing","","3454 Percy Priest Dr","TN",-86.627148,36.154283,"Tesla","","","","","8","","","N","","N","Other_DCFC"
"LOCAL MARKET LOCAL #107 DC2","","Existing","","474 Callahan Drive","TN",-83.999435,36.023468,"ChargePoint Network","","","","","1","","2026-04-01","N","","N","Other_DCFC"
"LOCAL MARKET LOCAL #107 DC1","","Existing","","474 Callahan Drive","TN",-83.999301,36.023373,"ChargePoint Network","","","","","1","","2026-04-01","N","","N","Other_DCFC"
"The Mall at Green Hills - Gold Garage","","Existing","","2126 Abbott Martin Rd","TN",-86.8179458862658,36.1077711981692,"eVgo Network","","","","","3","","","N","","N","Other_DCFC"
"The Mall at Green Hills - Ruby Garage","","Existing","","2126 Abbott Martin Rd","TN",-86.8145635302171,36.1063645131723,"Electrify America","","","","","8","","","N","","N","Other_DCFC"
